,timestamp,throttle,steering,leftTicks,rightTicks,posX,posY,posZ,roll,pitch,yaw,speed,angX,angY,angZ,accX,accY,accZ
0,2025-09-01 14:41:14.119086,0.02,0.10472,0.0,0.0,0.2001,0.1583,0.0592,0.0,0.0314,4.7124,0.0,0.0,0.0001,0.0,0.0001,0.0005,-0.0026
1,2025-09-01 14:41:14.165489,0.02,0.10472,0.216,0.216,99.8923,99.8922,0.0582,0.0004,0.0286,0.7864,0.3291,0.0198,0.0707,0.084,2.5281,0.5822,3.7699
2,2025-09-01 14:41:14.296322,0.02,0.10472,0.877,0.8868,99.9166,99.917,0.0579,0.0009,0.027,0.7971,0.4792,-0.0034,0.0016,0.1459,0.5718,0.0299,0.0144
3,2025-09-01 14:41:14.416884,0.02,0.10472,1.5773,1.6068,99.9453,99.9467,0.0583,0.0009,0.0279,0.8097,0.4973,-0.0046,0.0129,0.1518,0.0556,0.003,-0.0012
4,2025-09-01 14:41:14.533047,0.02,0.10472,2.582,2.6311,99.9858,99.9901,0.0586,0.0008,0.0291,0.8279,0.4988,-0.0047,0.0083,0.1524,-0.0008,0.0001,-0.0001
5,2025-09-01 14:41:14.647778,0.02,0.10472,3.5637,3.6423,100.0247,100.0336,0.0588,0.0008,0.0298,0.8457,0.4986,-0.0047,0.0047,0.1524,-0.0018,0.0001,0.0
6,2025-09-01 14:41:14.765827,0.02,0.10472,4.5422,4.6404,100.0627,100.0773,0.059,0.0008,0.0302,0.8634,0.4985,-0.0047,0.0026,0.1524,-0.0013,0.0002,0.0076
7,2025-09-01 14:41:14.882387,0.02,0.10472,5.5272,5.6516,100.1001,100.1219,0.059,0.0008,0.0305,0.8812,0.4984,-0.0047,0.0015,0.1524,-0.0006,0.0002,-0.0027
8,2025-09-01 14:41:14.999970,0.02,0.10472,6.5188,6.6661,100.137,100.1679,0.0591,0.0008,0.0306,0.8992,0.4983,-0.0047,0.0009,0.1524,-0.0004,0.0003,0.0055
9,2025-09-01 14:41:15.067288,0.02,0.10472,7.4057,7.5725,100.1692,100.2092,0.0591,0.0008,0.0307,0.9152,0.4983,-0.0047,0.0006,0.1524,-0.0001,-0.0003,-0.0012
10,2025-09-01 14:41:15.183726,0.02,0.10472,8.0438,8.227,100.1921,100.2394,0.0591,0.0008,0.0307,0.9268,0.4983,-0.0047,0.0004,0.1524,-0.0001,0.0001,-0.003
11,2025-09-01 14:41:15.300554,0.02,0.10472,9.0288,9.2382,100.2266,100.2864,0.0591,0.0008,0.0307,0.9446,0.4983,-0.0047,0.0003,0.1524,0.0001,-0.0003,-0.0039
12,2025-09-01 14:41:15.366432,0.02,0.10472,9.9222,10.1513,100.2571,100.3295,0.0591,0.0008,0.0307,0.9608,0.4983,-0.0047,0.0002,0.1524,-0.0001,0.0001,0.0042
13,2025-09-01 14:41:15.483704,0.02,0.10472,10.5702,10.8156,100.2788,100.3612,0.0591,0.0008,0.0307,0.9725,0.4983,-0.0047,0.0002,0.1524,0.0,-0.0001,0.0004
14,2025-09-01 14:41:15.598310,0.02,0.10472,11.5617,11.8333,100.3114,100.4101,0.0591,0.0008,0.0307,0.9905,0.4983,-0.0047,0.0002,0.1524,0.0001,0.0,-0.0022
15,2025-09-01 14:41:15.715824,0.02,0.10472,12.5467,12.8413,100.3428,100.4593,0.0591,0.0008,0.0307,1.0084,0.4983,-0.0047,0.0002,0.1524,0.0,-0.0001,0.0002
16,2025-09-01 14:41:15.830596,0.02,0.10472,13.5154,13.8328,100.3729,100.508,0.0591,0.0008,0.0307,1.0259,0.4983,-0.0047,0.0001,0.1524,0.0001,0.0001,-0.0055
17,2025-09-01 14:41:15.948672,0.02,0.10472,14.5102,14.8506,100.4028,100.5588,0.0591,0.0008,0.0307,1.0439,0.4983,-0.0047,0.0001,0.1524,0.0,0.0,-0.0068
18,2025-09-01 14:41:16.065103,0.02,0.10472,15.4953,15.8585,100.4316,100.6094,0.0591,0.0008,0.0307,1.0617,0.4983,-0.0047,0.0001,0.1524,0.0,0.0002,0.0052
19,2025-09-01 14:41:16.181062,0.02,0.10472,16.4639,16.8501,100.459,100.6599,0.0591,0.0008,0.0307,1.0793,0.4983,-0.0047,0.0001,0.1524,-0.0001,0.0004,0.0013
20,2025-09-01 14:41:16.300240,0.02,0.10472,17.4489,17.8613,100.4859,100.7115,0.0591,0.0008,0.0307,1.0971,0.4983,-0.0047,0.0001,0.1524,0.0,-0.0001,0.0001
21,2025-09-01 14:41:16.415641,0.02,0.10472,18.434,18.8692,100.512,100.7638,0.0591,0.0008,0.0307,1.1149,0.4983,-0.0047,0.0001,0.1524,0.0,-0.0004,0.0025
22,2025-09-01 14:41:16.530270,0.02,0.10472,19.4092,19.8706,100.5369,100.8158,0.0591,0.0008,0.0307,1.1326,0.4983,-0.0047,0.0001,0.1524,0.0,0.0,0.0026
23,2025-09-01 14:41:16.649084,0.02,0.10472,20.4105,20.8949,100.5615,100.87,0.0591,0.0008,0.0307,1.1508,0.4983,-0.0047,0.0001,0.1524,0.0001,-0.0005,-0.0017
24,2025-09-01 14:41:16.765045,0.02,0.10472,21.389,21.8963,100.5845,100.9229,0.0591,0.0008,0.0307,1.1684,0.4983,-0.0047,0.0001,0.1524,0.0,0.0002,-0.0026
25,2025-09-01 14:41:16.866331,0.02,0.10472,22.2137,22.7406,100.6032,100.9681,0.0591,0.0008,0.0307,1.1834,0.4983,-0.0047,0.0001,0.1524,-0.0001,0.0,0.0021
26,2025-09-01 14:41:16.966770,0.02,0.10472,23.0711,23.6209,100.6219,101.0155,0.0591,0.0008,0.0307,1.1989,0.4983,-0.0047,0.0001,0.1524,0.0,-0.0002,-0.003
27,2025-09-01 14:41:17.080672,0.02,0.10472,24.0397,24.6124,100.6422,101.0689,0.0591,0.0008,0.0307,1.2165,0.4983,-0.0047,0.0001,0.1524,-0.0002,-0.0001,0.009
28,2025-09-01 14:41:17.199562,0.02,0.10472,25.0313,25.6302,100.662,101.1245,0.0591,0.0008,0.0307,1.2344,0.4983,-0.0047,0.0001,0.1524,0.0001,-0.0001,0.0017
29,2025-09-01 14:41:17.298691,0.02,0.10472,25.9247,26.5432,100.6789,101.1746,0.0591,0.0008,0.0307,1.2506,0.4983,-0.0047,0.0001,0.1524,-0.0002,-0.0003,0.0073
30,2025-09-01 14:41:17.415280,0.02,0.10472,26.8508,27.4922,100.6956,101.2267,0.0591,0.0008,0.0307,1.2674,0.4983,-0.0047,0.0001,0.1524,0.0,0.0,0.0004
31,2025-09-01 14:41:17.532943,0.02,0.10472,27.8293,28.4936,100.7123,101.282,0.0591,0.0008,0.0307,1.2851,0.4983,-0.0047,0.0001,0.1524,-0.0001,0.0001,0.0017
32,2025-09-01 14:41:17.648205,0.02,0.10472,28.8143,29.5015,100.7281,101.3383,0.0591,0.0008,0.0307,1.3029,0.4983,-0.0047,0.0001,0.1524,-0.0001,0.0001,0.0013
33,2025-09-01 14:41:17.765887,0.02,0.10472,29.7993,30.5095,100.7429,101.3948,0.0591,0.0008,0.0307,1.3207,0.4983,-0.0047,0.0001,0.1524,-0.0001,0.0,0.0026
34,2025-09-01 14:41:17.883878,0.02,0.10472,30.7843,31.5174,100.7567,101.4512,0.0591,0.0008,0.0307,1.3386,0.4983,-0.0047,0.0001,0.1524,-0.0001,0.0,-0.0022
35,2025-09-01 14:41:17.999243,0.02,0.10472,31.7595,32.5188,100.7694,101.5074,0.0591,0.0008,0.0307,1.3562,0.4983,-0.0047,0.0001,0.1524,-0.0001,-0.0004,0.0069
36,2025-09-01 14:41:18.114368,0.02,0.10472,32.7446,33.5267,100.7812,101.5649,0.0591,0.0008,0.0307,1.3741,0.4983,-0.0047,0.0001,0.1524,-0.0001,0.0002,0.003
37,2025-09-01 14:41:18.231519,0.02,0.10472,33.7198,34.5281,100.7919,101.6219,0.0591,0.0008,0.0307,1.3918,0.4983,-0.0047,0.0001,0.1524,-0.0001,-0.0001,0.0034
38,2025-09-01 14:41:18.351258,0.02,0.10472,34.7146,35.5458,100.8017,101.6799,0.0591,0.0008,0.0307,1.4098,0.4983,-0.0047,0.0001,0.1524,0.0001,0.0,-0.0021
39,2025-09-01 14:41:18.465478,0.02,0.10472,35.6996,36.5537,100.8104,101.7375,0.0591,0.0008,0.0307,1.4276,0.4983,-0.0047,0.0001,0.1524,0.0,0.0,0.0039
40,2025-09-01 14:41:18.583916,0.02,0.10472,36.6748,37.5551,100.818,101.7947,0.0591,0.0008,0.0307,1.4453,0.4983,-0.0047,0.0001,0.1524,-0.0001,0.0,0.0021
41,2025-09-01 14:41:18.650139,0.02,0.10472,37.5617,38.4583,100.824,101.8465,0.0591,0.0008,0.0307,1.4613,0.4983,-0.0047,0.0001,0.1524,0.0001,-0.0002,-0.0026
42,2025-09-01 14:41:18.764030,0.02,0.10472,38.2162,39.1325,100.828,101.8849,0.0591,0.0008,0.0307,1.4732,0.4983,-0.0047,0.0001,0.1524,0.0,0.0001,-0.0008
43,2025-09-01 14:41:18.881155,0.02,0.10472,39.2012,40.1404,100.833,101.9427,0.0591,0.0008,0.0307,1.491,0.4983,-0.0047,0.0001,0.1524,-0.0001,-0.0001,0.0018
44,2025-09-01 14:41:18.998321,0.02,0.10472,40.1797,41.1418,100.837,102.0001,0.0591,0.0008,0.0307,1.5087,0.4983,-0.0047,0.0001,0.1524,-0.0001,-0.0002,0.0
45,2025-09-01 14:41:19.116255,0.02,0.10472,41.1647,42.1497,100.84,102.0579,0.0591,0.0008,0.0307,1.5265,0.4983,-0.0047,0.0001,0.1524,-0.0003,0.0001,0.0082
46,2025-09-01 14:41:19.217856,0.02,0.10472,42.0123,43.0202,100.8418,102.1079,0.0591,0.0008,0.0307,1.5419,0.4983,-0.0047,0.0001,0.1524,-0.0001,0.0,0.0069
47,2025-09-01 14:41:19.332426,0.02,0.10472,42.9907,44.0216,100.8429,102.1654,0.0591,0.0008,0.0307,1.5596,0.4983,-0.0047,0.0001,0.1524,-0.0001,-0.0002,0.0014
48,2025-09-01 14:41:19.447208,0.02,0.10472,43.9659,45.023,100.8428,102.2229,0.0591,0.0008,0.0307,1.5773,0.4983,-0.0047,0.0001,0.1524,0.0,-0.0001,0.0012
49,2025-09-01 14:41:19.566695,0.02,0.10472,44.951,46.0309,100.8418,102.281,0.0591,0.0008,0.0307,1.5951,0.4983,-0.0047,0.0001,0.1524,0.0,0.0004,-0.0017
50,2025-09-01 14:41:19.682113,0.02,0.10472,45.9196,47.0225,100.8398,102.3381,0.0591,0.0008,0.0307,1.6127,0.4983,-0.0047,0.0001,0.1524,-0.0001,0.0003,0.0013
51,2025-09-01 14:41:19.798700,0.02,0.10472,46.921,48.0467,100.8366,102.3973,0.0591,0.0008,0.0307,1.6308,0.4983,-0.0047,0.0001,0.1524,0.0,0.0001,0.0021
52,2025-09-01 14:41:19.917791,0.02,0.10472,47.8995,49.0481,100.8326,102.455,0.0591,0.0008,0.0307,1.6485,0.4983,-0.0047,0.0001,0.1524,-0.0001,0.0001,0.0081
53,2025-09-01 14:41:20.032419,0.02,0.10472,48.8845,50.056,100.8274,102.5133,0.0591,0.0008,0.0307,1.6663,0.4983,-0.0047,0.0001,0.1524,0.0002,0.0,-0.0056
54,2025-09-01 14:41:20.150206,0.02,0.10472,49.8597,51.0574,100.8213,102.5711,0.0591,0.0008,0.0307,1.684,0.4983,-0.0047,0.0001,0.1524,0.0,-0.0002,0.0026
55,2025-09-01 14:41:20.267338,0.02,0.10472,50.8447,52.0654,100.814,102.6288,0.0591,0.0008,0.0307,1.7019,0.4983,-0.0047,0.0001,0.1524,-0.0001,0.0001,0.0026
56,2025-09-01 14:41:20.351890,0.02,0.10472,51.7545,52.998,100.8064,102.6819,0.0591,0.0008,0.0307,1.7183,0.4983,-0.0047,0.0001,0.1524,-0.0001,0.0004,0.0022
57,2025-09-01 14:41:20.452212,0.02,0.10472,52.4548,53.7147,100.8,102.7227,0.0591,0.0008,0.0307,1.731,0.4983,-0.0047,0.0001,0.1524,0.0002,-0.0005,-0.0073
58,2025-09-01 14:41:20.551666,0.02,0.10472,53.3285,54.6114,100.7912,102.7739,0.0591,0.0008,0.0307,1.7468,0.4983,-0.0047,0.0001,0.1524,0.0,0.0,0.0047
59,2025-09-01 14:41:20.666013,0.02,0.10472,54.2219,55.5244,100.7814,102.8261,0.0591,0.0008,0.0307,1.763,0.4983,-0.0047,0.0001,0.1524,0.0,0.0001,0.0008
60,2025-09-01 14:41:20.782323,0.02,0.10472,55.1906,56.5159,100.7698,102.882,0.0591,0.0008,0.0307,1.7805,0.4983,-0.0047,0.0001,0.1524,0.0,0.0002,0.0008
61,2025-09-01 14:41:20.898369,0.02,0.10472,56.1822,57.5337,100.7569,102.9393,0.0591,0.0008,0.0307,1.7985,0.4983,-0.0047,0.0001,0.1524,-0.0001,0.0002,-0.0047
62,2025-09-01 14:41:21.016588,0.02,0.10472,57.1606,58.5318,100.7433,102.9957,0.0591,0.0008,0.0307,1.8162,0.4983,-0.0047,0.0001,0.1524,0.0002,0.0001,-0.0069
63,2025-09-01 14:41:21.132541,0.02,0.10472,58.1457,59.543,100.7285,103.052,0.0591,0.0008,0.0307,1.834,0.4983,-0.0047,0.0001,0.1524,0.0,-0.0002,-0.0018
64,2025-09-01 14:41:21.248311,0.02,0.10472,59.1307,60.5509,100.7127,103.1081,0.0591,0.0008,0.0307,1.8519,0.4983,-0.0047,0.0001,0.1524,0.0003,-0.0003,-0.0051
65,2025-09-01 14:41:21.365462,0.02,0.10472,60.1059,61.5523,100.6961,103.1637,0.0591,0.0008,0.0307,1.8695,0.4983,-0.0047,0.0001,0.1524,0.0002,-0.0003,-0.006
66,2025-09-01 14:41:21.481779,0.02,0.10472,61.0909,62.5602,100.6783,103.219,0.0591,0.0008,0.0307,1.8874,0.4983,-0.0047,0.0001,0.1524,-0.0001,0.0005,-0.0031
67,2025-09-01 14:41:21.597963,0.02,0.10472,62.0661,63.5616,100.6598,103.2739,0.0591,0.0008,0.0307,1.9051,0.4983,-0.0047,0.0001,0.1524,-0.0001,0.0,0.0051
68,2025-09-01 14:41:21.716519,0.02,0.10472,63.0609,64.5794,100.6398,103.3292,0.0591,0.0008,0.0307,1.923,0.4983,-0.0047,0.0001,0.1524,-0.0002,0.0002,-0.0008
69,2025-09-01 14:41:21.814764,0.02,0.10472,63.9969,65.5349,100.6202,103.3809,0.0591,0.0008,0.0307,1.94,0.4983,-0.0047,0.0001,0.1524,-0.0002,0.0001,-0.0017
70,2025-09-01 14:41:21.932869,0.02,0.10472,64.887,66.448,100.6006,103.43,0.0591,0.0008,0.0307,1.9561,0.4983,-0.0047,0.0001,0.1524,0.0,0.0,0.0021
71,2025-09-01 14:41:22.047386,0.02,0.10472,65.8655,67.4493,100.5783,103.4833,0.0591,0.0008,0.0307,1.9738,0.4983,-0.0047,0.0001,0.1524,0.0,-0.0001,0.0034
72,2025-09-01 14:41:22.166648,0.02,0.10472,66.8407,68.4507,100.555,103.5363,0.0591,0.0008,0.0307,1.9915,0.4983,-0.0047,0.0001,0.1524,0.0,-0.0001,0.0039
73,2025-09-01 14:41:22.240786,0.02,0.10472,67.7995,69.4325,100.5313,103.5879,0.0591,0.0008,0.0307,2.0089,0.4983,-0.0047,0.0001,0.1524,-0.0001,0.0,0.0078
74,2025-09-01 14:41:22.355401,0.02,0.10472,68.3918,70.0346,100.5162,103.6195,0.0591,0.0008,0.0307,2.0195,0.4983,-0.0047,0.0001,0.1524,0.0002,0.0002,-0.0064
75,2025-09-01 14:41:22.464919,0.02,0.10472,69.3768,71.0458,100.4903,103.6716,0.0591,0.0008,0.0307,2.0374,0.4983,-0.0047,0.0001,0.1524,0.0002,-0.0001,-0.0035
76,2025-09-01 14:41:22.580754,0.02,0.10472,70.352,72.0439,100.4638,103.7231,0.0591,0.0008,0.0307,2.055,0.4983,-0.0047,0.0001,0.1524,-0.0001,0.0002,0.0039
77,2025-09-01 14:41:22.698859,0.02,0.10472,71.3273,73.0453,100.4363,103.7739,0.0591,0.0008,0.0307,2.0727,0.4983,-0.0047,0.0001,0.1524,0.0001,0.0001,-0.0009
78,2025-09-01 14:41:22.816272,0.02,0.10472,72.3123,74.0532,100.4076,103.8247,0.0591,0.0008,0.0307,2.0906,0.4983,-0.0047,0.0001,0.1524,0.0001,-0.0002,-0.0026
79,2025-09-01 14:41:22.931897,0.02,0.10472,73.2973,75.0644,100.3781,103.8751,0.0591,0.0008,0.0307,2.1084,0.4983,-0.0047,0.0001,0.1524,0.0,0.0001,0.0051
80,2025-09-01 14:41:23.049108,0.02,0.10472,74.2823,76.0724,100.3477,103.9248,0.0591,0.0008,0.0307,2.1262,0.4983,-0.0047,0.0001,0.1524,0.0004,-0.0001,-0.003
81,2025-09-01 14:41:23.164760,0.02,0.10472,75.251,77.0639,100.3169,103.9732,0.0591,0.0008,0.0307,2.1438,0.4983,-0.0047,0.0001,0.1524,0.0001,0.0,-0.0009
82,2025-09-01 14:41:23.284864,0.02,0.10472,76.236,78.0719,100.2847,104.0219,0.0591,0.0008,0.0307,2.1616,0.4983,-0.0047,0.0001,0.1524,-0.0001,0.0,-0.0021
83,2025-09-01 14:41:23.399222,0.02,0.10472,77.2308,79.0896,100.2514,104.0703,0.0591,0.0008,0.0307,2.1796,0.4983,-0.0047,0.0001,0.1524,0.0001,0.0001,-0.0064
84,2025-09-01 14:41:23.472145,0.02,0.10472,78.1635,80.0484,100.2194,104.1153,0.0591,0.0008,0.0307,2.1965,0.4983,-0.0047,0.0001,0.1524,0.0002,0.0002,-0.0039
85,2025-09-01 14:41:23.579567,0.02,0.10472,78.7623,80.6604,100.1985,104.144,0.0591,0.0008,0.0307,2.2073,0.4983,-0.0047,0.0001,0.1524,0.0002,-0.0002,-0.0064
86,2025-09-01 14:41:23.681316,0.02,0.10472,79.6132,81.5309,100.1681,104.1841,0.0591,0.0008,0.0307,2.2227,0.4983,-0.0047,0.0001,0.1524,0.0,0.0,0.0013
87,2025-09-01 14:41:23.797600,0.02,0.10472,80.5884,82.529,100.1325,104.2297,0.0591,0.0008,0.0307,2.2404,0.4983,-0.0047,0.0001,0.1524,0.0,0.0001,-0.0048
88,2025-09-01 14:41:23.915067,0.02,0.10472,81.5832,83.5467,100.0955,104.2755,0.0591,0.0008,0.0307,2.2584,0.4983,-0.0047,0.0001,0.1524,-0.0001,0.0001,-0.0064
89,2025-09-01 14:41:23.999462,0.02,0.10472,82.4766,84.463,100.0616,104.3159,0.0591,0.0008,0.0307,2.2746,0.4983,-0.0047,0.0001,0.1524,-0.0003,0.0,0.0086
90,2025-09-01 14:41:24.114982,0.02,0.10472,83.2588,85.2648,100.0313,104.3509,0.0591,0.0008,0.0307,2.2887,0.4983,-0.0047,0.0001,0.1524,-0.0003,-0.0001,0.0039
91,2025-09-01 14:41:24.230588,0.02,0.10472,84.234,86.2629,99.9927,104.3941,0.0591,0.0008,0.0307,2.3064,0.4983,-0.0047,0.0001,0.1524,0.0002,-0.0001,-0.0082
92,2025-09-01 14:41:24.332255,0.02,0.10472,85.075,87.1268,99.9589,104.4308,0.0591,0.0008,0.0307,2.3217,0.4983,-0.0047,0.0001,0.1524,-0.0001,0.0001,0.003
93,2025-09-01 14:41:24.447403,0.02,0.10472,86.0796,88.1511,99.918,104.4737,0.0591,0.0008,0.0307,2.3398,0.4983,-0.0047,0.0001,0.1524,-0.0002,-0.0001,0.0022
94,2025-09-01 14:41:24.565194,0.02,0.10472,87.0548,89.1525,99.8774,104.5147,0.0591,0.0008,0.0307,2.3575,0.4983,-0.0047,0.0001,0.1524,-0.0001,-0.0001,0.0051
95,2025-09-01 14:41:24.680196,0.02,0.10472,88.0235,90.1441,99.8363,104.5548,0.0591,0.0008,0.0307,2.375,0.4983,-0.0047,0.0001,0.1524,0.0,-0.0002,0.0034
96,2025-09-01 14:41:24.798309,0.02,0.10472,89.0085,91.152,99.7938,104.5948,0.0591,0.0008,0.0307,2.3929,0.4983,-0.0047,0.0001,0.1524,0.0002,-0.0003,-0.0082
97,2025-09-01 14:41:24.914491,0.02,0.10472,89.9935,92.1632,99.7507,104.634,0.0591,0.0008,0.0307,2.4107,0.4983,-0.0047,0.0001,0.1524,-0.0001,0.0003,0.0048
98,2025-09-01 14:41:25.032556,0.02,0.10472,90.9687,93.1613,99.7073,104.6721,0.0591,0.0008,0.0307,2.4284,0.4983,-0.0047,0.0001,0.1524,0.0,0.0002,0.0013
99,2025-09-01 14:41:25.148778,0.02,0.10472,91.9472,94.1627,99.6631,104.7095,0.0591,0.0008,0.0307,2.4461,0.4983,-0.0047,0.0001,0.1524,0.0001,-0.0002,-0.0026
100,2025-09-01 14:41:25.265235,0.02,0.10472,92.9486,95.187,99.6171,104.747,0.0591,0.0008,0.0307,2.4642,0.4983,-0.0047,0.0001,0.1524,0.0,-0.0001,-0.0074
101,2025-09-01 14:41:25.365608,0.02,0.10472,93.842,96.1033,99.5757,104.7797,0.0591,0.0008,0.0307,2.4804,0.4983,-0.0047,0.0002,0.1524,0.0003,0.0001,-0.0056
102,2025-09-01 14:41:25.482930,0.02,0.10472,94.7583,97.0425,99.5324,104.8126,0.0591,0.0008,0.0307,2.497,0.4983,-0.0047,0.0001,0.1524,0.0001,0.0,0.0004
103,2025-09-01 14:41:25.598578,0.02,0.10472,95.7433,98.0504,99.4854,104.8472,0.0591,0.0008,0.0307,2.5148,0.4983,-0.0047,0.0001,0.1524,0.0002,0.0,0.0012
104,2025-09-01 14:41:25.714640,0.02,0.10472,96.7382,99.0682,99.4375,104.8811,0.0591,0.0008,0.0307,2.5328,0.4983,-0.0047,0.0001,0.1524,-0.0001,-0.0001,-0.0016
105,2025-09-01 14:41:25.831873,0.02,0.10472,97.7035,100.0597,99.3899,104.9134,0.0591,0.0008,0.0307,2.5503,0.4983,-0.0047,0.0001,0.1524,0.0001,-0.0003,-0.0039
106,2025-09-01 14:41:25.947249,0.02,0.10472,98.6984,101.0775,99.3408,104.9456,0.0591,0.0008,0.0307,2.5683,0.4983,-0.0047,0.0001,0.1524,0.0001,0.0002,-0.0009
107,2025-09-01 14:41:26.064294,0.02,0.10472,99.667,102.069,99.2923,104.9762,0.0591,0.0008,0.0307,2.5858,0.4983,-0.0047,0.0001,0.1524,0.0001,-0.0001,0.0008
108,2025-09-01 14:41:26.185246,0.02,0.10472,100.6521,103.0802,99.2424,105.0064,0.0591,0.0008,0.0307,2.6037,0.4983,-0.0047,0.0001,0.1524,-0.0001,0.0001,0.0034
109,2025-09-01 14:41:26.302524,0.02,0.10472,101.6436,104.098,99.1916,105.036,0.0591,0.0008,0.0307,2.6217,0.4983,-0.0047,0.0001,0.1524,-0.0001,0.0,0.0004
110,2025-09-01 14:41:26.383251,0.02,0.10472,102.6025,105.083,99.1419,105.0637,0.0591,0.0008,0.0307,2.639,0.4983,-0.0047,0.0001,0.1524,-0.0003,0.0004,0.0081
111,2025-09-01 14:41:26.498706,0.02,0.10472,103.3191,105.816,99.1046,105.0838,0.0591,0.0008,0.0307,2.652,0.4983,-0.0047,0.0001,0.1524,-0.0001,-0.0001,0.0013
112,2025-09-01 14:41:26.615254,0.02,0.10472,104.3107,106.8338,99.0524,105.1109,0.0591,0.0008,0.0307,2.67,0.4983,-0.0047,0.0001,0.1524,-0.0001,0.0,-0.0013
113,2025-09-01 14:41:26.730701,0.02,0.10472,105.2794,107.8253,99.001,105.1364,0.0591,0.0008,0.0307,2.6875,0.4983,-0.0047,0.0001,0.1524,0.0003,0.0001,-0.0012
114,2025-09-01 14:41:26.848601,0.02,0.10472,106.2709,108.8431,98.948,105.1616,0.0591,0.0008,0.0307,2.7055,0.4983,-0.0047,0.0001,0.1524,0.0001,-0.0001,-0.0022
115,2025-09-01 14:41:26.965866,0.02,0.10472,107.2559,109.8543,98.8947,105.1857,0.0591,0.0008,0.0307,2.7233,0.4983,-0.0047,0.0001,0.1524,-0.0002,0.0,0.006
116,2025-09-01 14:41:27.064430,0.02,0.10472,108.0872,110.7084,98.8496,105.2053,0.0591,0.0008,0.0307,2.7384,0.4983,-0.0047,0.0001,0.1524,-0.0002,-0.0001,0.0005
117,2025-09-01 14:41:27.182442,0.02,0.10472,109.082,111.7262,98.7951,105.2278,0.0591,0.0008,0.0307,2.7564,0.4983,-0.0047,0.0001,0.1524,0.0004,-0.0001,-0.0154
118,2025-09-01 14:41:27.281553,0.02,0.10472,109.9819,112.649,98.7454,105.2473,0.0591,0.0008,0.0307,2.7727,0.4983,-0.0047,0.0001,0.1524,0.0002,0.0,-0.0022
119,2025-09-01 14:41:27.397423,0.02,0.10472,110.8982,113.5882,98.6948,105.2664,0.0591,0.0008,0.0307,2.7893,0.4983,-0.0047,0.0001,0.1524,-0.0001,0.0,0.0013
120,2025-09-01 14:41:27.515394,0.02,0.10472,111.8734,114.5896,98.6401,105.2857,0.0591,0.0008,0.0307,2.807,0.4983,-0.0047,0.0001,0.1524,0.0001,0.0001,-0.0047
121,2025-09-01 14:41:27.632719,0.02,0.10472,112.8584,115.6008,98.5847,105.3042,0.0591,0.0008,0.0307,2.8249,0.4983,-0.0047,0.0001,0.1524,0.0001,0.0,-0.0025
122,2025-09-01 14:41:27.747255,0.02,0.10472,113.8336,116.6022,98.5298,105.3216,0.0591,0.0008,0.0307,2.8425,0.4983,-0.0047,0.0001,0.1524,0.0001,0.0,-0.0048
123,2025-09-01 14:41:27.866237,0.02,0.10472,114.8285,117.6199,98.4733,105.3383,0.0591,0.0008,0.0307,2.8605,0.4983,-0.0047,0.0001,0.1524,0.0001,0.0,0.0065
124,2025-09-01 14:41:27.982634,0.02,0.10472,115.7939,118.6115,98.4179,105.3536,0.0591,0.0008,0.0307,2.8781,0.4983,-0.0047,0.0001,0.1524,0.0003,-0.0001,-0.0094
125,2025-09-01 14:41:28.099241,0.02,0.10472,116.7887,119.6292,98.361,105.3683,0.0591,0.0008,0.0307,2.896,0.4983,-0.0047,0.0001,0.1524,0.0,0.0001,0.0107
126,2025-09-01 14:41:28.215073,0.02,0.10472,117.7705,120.6404,98.3045,105.3819,0.0591,0.0008,0.0307,2.9139,0.4983,-0.0047,0.0001,0.1524,-0.0001,-0.0001,0.0104
127,2025-09-01 14:41:28.332613,0.02,0.10472,118.7489,121.6385,98.2481,105.3943,0.0591,0.0008,0.0307,2.9316,0.4983,-0.0047,0.0001,0.1524,0.0001,0.0,-0.0055
128,2025-09-01 14:41:28.447826,0.02,0.10472,119.7241,122.6399,98.1911,105.4057,0.0591,0.0008,0.0307,2.9492,0.4983,-0.0047,0.0001,0.1524,0.0001,-0.0001,-0.0011
129,2025-09-01 14:41:28.565296,0.02,0.10472,120.7157,123.6577,98.1331,105.4163,0.0591,0.0008,0.0307,2.9672,0.4983,-0.0047,0.0001,0.1524,0.0003,0.0,-0.0039
130,2025-09-01 14:41:28.683811,0.02,0.10472,121.6909,124.6591,98.076,105.4257,0.0591,0.0008,0.0307,2.9849,0.4983,-0.0047,0.0001,0.1524,-0.0001,0.0,0.0043
131,2025-09-01 14:41:28.797419,0.02,0.10472,122.6694,125.6604,98.0189,105.4341,0.0591,0.0008,0.0307,3.0026,0.4983,-0.0047,0.0001,0.1524,-0.0001,0.0002,0.0056
132,2025-09-01 14:41:28.916599,0.02,0.10472,123.6609,126.6782,97.9608,105.4417,0.0591,0.0008,0.0307,3.0206,0.4983,-0.0047,0.0001,0.1524,-0.0003,0.0003,0.0083
133,2025-09-01 14:41:29.030219,0.02,0.10472,124.646,127.6894,97.903,105.4481,0.0591,0.0008,0.0307,3.0384,0.4983,-0.0047,0.0001,0.1524,0.0004,0.0,-0.012
134,2025-09-01 14:41:29.153608,0.02,0.10472,125.6212,128.6908,97.8458,105.4534,0.0591,0.0008,0.0307,3.0561,0.4983,-0.0047,0.0001,0.1524,0.0002,-0.0001,-0.0141
135,2025-09-01 14:41:29.266966,0.02,0.10472,126.6062,129.6987,97.788,105.4577,0.0591,0.0008,0.0307,3.0739,0.4983,-0.0047,0.0001,0.1524,0.0,0.0,0.0009
136,2025-09-01 14:41:29.381778,0.02,0.10472,127.5716,130.6903,97.7311,105.461,0.0591,0.0008,0.0307,3.0915,0.4983,-0.0047,0.0001,0.1524,-0.0003,-0.0001,0.0069
137,2025-09-01 14:41:29.497808,0.02,0.10472,128.5664,131.708,97.6727,105.4632,0.0591,0.0008,0.0307,3.1095,0.4983,-0.0047,0.0001,0.1524,0.0001,0.0001,-0.0043
138,2025-09-01 14:41:29.616766,0.02,0.10472,129.5514,132.7192,97.6147,105.4645,0.0591,0.0008,0.0307,3.1273,0.4983,-0.0047,0.0001,0.1524,-0.0002,-0.0001,0.0042
139,2025-09-01 14:41:29.732612,0.02,0.10472,130.5266,133.7206,97.5572,105.4648,0.0591,0.0008,0.0307,3.145,0.4983,-0.0047,0.0001,0.1524,0.0,0.0001,-0.0039
140,2025-09-01 14:41:29.850585,0.02,0.10472,131.5018,134.722,97.4997,105.4639,0.0591,0.0008,0.0307,3.1627,0.4983,-0.0047,0.0001,0.1524,0.0001,0.0,-0.0005
141,2025-09-01 14:41:29.967980,0.02,0.10472,132.4934,135.7397,97.4411,105.462,0.0591,0.0008,0.0307,3.1807,0.4983,-0.0047,0.0001,0.1524,-0.0003,0.0002,0.009
142,2025-09-01 14:41:30.081487,0.02,0.10472,133.4621,136.7313,97.3839,105.4591,0.0591,0.0008,0.0307,3.1982,0.4983,-0.0047,0.0001,0.1524,-0.0001,0.0,0.0012
143,2025-09-01 14:41:30.197319,0.02,0.10472,134.4471,137.7425,97.3257,105.4551,0.0591,0.0008,0.0307,3.216,0.4983,-0.0047,0.0001,0.1524,-0.0001,0.0002,-0.0017
144,2025-09-01 14:41:30.314420,0.02,0.10472,135.4321,138.7504,97.2674,105.4502,0.0591,0.0008,0.0307,3.2339,0.4983,-0.0047,0.0001,0.1524,-0.0001,0.0,-0.0009
145,2025-09-01 14:41:30.430809,0.02,0.10472,136.4237,139.7681,97.2087,105.4442,0.0591,0.0008,0.0307,3.2518,0.4983,-0.0047,0.0001,0.1524,-0.0001,-0.0001,0.0018
146,2025-09-01 14:41:30.547831,0.02,0.10472,137.4152,140.7859,97.1503,105.437,0.0591,0.0008,0.0307,3.2698,0.4983,-0.0047,0.0001,0.1524,-0.0003,0.0001,0.0081
147,2025-09-01 14:41:30.666489,0.02,0.10472,138.3741,141.7709,97.0943,105.4291,0.0591,0.0008,0.0307,3.2872,0.4983,-0.0047,0.0001,0.1524,0.0001,0.0,-0.0068
148,2025-09-01 14:41:30.782468,0.02,0.10472,139.3525,142.7723,97.0372,105.4201,0.0591,0.0008,0.0307,3.3049,0.4983,-0.0047,0.0001,0.1524,0.0001,0.0,0.0
149,2025-09-01 14:41:30.898810,0.02,0.10472,140.3441,143.79,96.9791,105.4099,0.0591,0.0008,0.0307,3.3229,0.4983,-0.0047,0.0001,0.1524,0.0,0.0001,0.0
150,2025-09-01 14:41:31.015696,0.02,0.10472,141.3193,144.7914,96.9222,105.3988,0.0591,0.0008,0.0307,3.3406,0.4983,-0.0047,0.0001,0.1524,-0.0001,0.0,-0.0017
151,2025-09-01 14:41:31.133092,0.02,0.10472,142.3043,145.7993,96.8654,105.3867,0.0591,0.0008,0.0307,3.3584,0.4983,-0.0047,0.0001,0.1524,-0.0001,0.0001,-0.0017
152,2025-09-01 14:41:31.232681,0.02,0.10472,143.2534,146.7746,96.8105,105.374,0.0591,0.0008,0.0307,3.3756,0.4983,-0.0047,0.0001,0.1524,0.0002,-0.0001,-0.0082
153,2025-09-01 14:41:31.348371,0.02,0.10472,144.1206,147.6647,96.7604,105.3616,0.0591,0.0008,0.0307,3.3913,0.4983,-0.0047,0.0001,0.1524,0.0001,-0.0001,0.0055
154,2025-09-01 14:41:31.464889,0.02,0.10472,145.1154,148.6824,96.7039,105.3465,0.0591,0.0008,0.0307,3.4093,0.4983,-0.0047,0.0001,0.1524,-0.0001,-0.0002,0.0026
155,2025-09-01 14:41:31.581609,0.02,0.10472,146.0906,149.6838,96.6482,105.3306,0.0591,0.0008,0.0307,3.427,0.4983,-0.0047,0.0001,0.1524,-0.0001,-0.0001,0.0029
156,2025-09-01 14:41:31.697847,0.02,0.10472,147.0756,150.6917,96.5923,105.3135,0.0591,0.0008,0.0307,3.4448,0.4983,-0.0047,0.0001,0.1524,0.0003,-0.0001,-0.0038
157,2025-09-01 14:41:31.798522,0.02,0.10472,147.9559,151.5982,96.5427,105.2974,0.0591,0.0008,0.0307,3.4608,0.4983,-0.0047,0.0001,0.1524,0.0002,-0.0001,-0.0099
158,2025-09-01 14:41:31.916877,0.02,0.10472,148.8919,152.5571,96.4902,105.2794,0.0591,0.0008,0.0307,3.4778,0.4983,-0.0047,0.0001,0.1524,-0.0001,0.0,-0.0035
159,2025-09-01 14:41:32.031601,0.02,0.10472,149.8769,153.565,96.4355,105.2596,0.0591,0.0008,0.0307,3.4956,0.4983,-0.0047,0.0001,0.1524,0.0,0.0001,0.0057
160,2025-09-01 14:41:32.148897,0.02,0.10472,150.8521,154.5664,96.3814,105.2389,0.0591,0.0008,0.0307,3.5133,0.4983,-0.0047,0.0001,0.1524,0.0002,-0.0002,-0.0096
161,2025-09-01 14:41:32.265650,0.02,0.10472,151.8371,155.5776,96.3273,105.2171,0.0591,0.0008,0.0307,3.5311,0.4983,-0.0047,0.0001,0.1524,-0.0001,0.0001,0.0009
162,2025-09-01 14:41:32.367078,0.02,0.10472,152.737,156.5004,96.2782,105.1964,0.0591,0.0008,0.0307,3.5474,0.4983,-0.0047,0.0001,0.1524,-0.0001,0.0001,-0.0017
163,2025-09-01 14:41:32.481684,0.02,0.10472,153.6533,157.4396,96.2285,105.1744,0.0591,0.0008,0.0307,3.564,0.4983,-0.0047,0.0001,0.1524,0.0001,0.0,-0.0052
164,2025-09-01 14:41:32.599250,0.02,0.10472,154.6384,158.4508,96.1756,105.1499,0.0591,0.0008,0.0307,3.5819,0.4983,-0.0047,0.0001,0.1524,0.0001,-0.0001,0.0
165,2025-09-01 14:41:32.715921,0.02,0.10472,155.6299,159.4686,96.1227,105.1242,0.0591,0.0008,0.0307,3.5999,0.4983,-0.0047,0.0001,0.1524,-0.0003,0.0003,0.0086
166,2025-09-01 14:41:32.814376,0.02,0.10472,156.4644,160.3227,96.0785,105.102,0.0591,0.0008,0.0307,3.615,0.4983,-0.0047,0.0001,0.1524,-0.0004,-0.0001,0.0098
167,2025-09-01 14:41:32.932768,0.02,0.10472,157.4462,161.3306,96.027,105.0748,0.0591,0.0008,0.0307,3.6328,0.4983,-0.0047,0.0001,0.1524,0.0001,-0.0004,-0.0038
168,2025-09-01 14:41:33.048881,0.02,0.10472,158.4312,162.3418,95.9757,105.0468,0.0591,0.0008,0.0307,3.6506,0.4983,-0.0047,0.0001,0.1524,0.0,-0.0002,-0.003
169,2025-09-01 14:41:33.166683,0.02,0.10472,159.4064,163.3432,95.9257,105.018,0.0591,0.0008,0.0307,3.6683,0.4983,-0.0047,0.0001,0.1524,0.0,0.0,0.0035
170,2025-09-01 14:41:33.286367,0.02,0.10472,160.3914,164.3511,95.8756,104.9882,0.0591,0.0008,0.0307,3.6862,0.4983,-0.0047,0.0001,0.1524,-0.0002,0.0,0.0043
171,2025-09-01 14:41:33.399941,0.02,0.10472,161.3764,165.3623,95.826,104.9574,0.0591,0.0008,0.0307,3.704,0.4983,-0.0047,0.0001,0.1524,0.0002,0.0001,-0.0069
172,2025-09-01 14:41:33.516277,0.02,0.10472,162.3614,166.3703,95.7771,104.9258,0.0591,0.0008,0.0307,3.7218,0.4983,-0.0047,0.0001,0.1524,0.0001,-0.0001,0.0
173,2025-09-01 14:41:33.632798,0.02,0.10472,163.3268,167.3618,95.7295,104.8939,0.0591,0.0008,0.0307,3.7394,0.4983,-0.0047,0.0001,0.1524,-0.0001,0.0,-0.0026
174,2025-09-01 14:41:33.751507,0.02,0.10472,164.3217,168.3828,95.6811,104.8602,0.0591,0.0008,0.0307,3.7573,0.4983,-0.0047,0.0001,0.1524,-0.0001,0.0,0.003
175,2025-09-01 14:41:33.867054,0.02,0.10472,165.3034,169.3908,95.634,104.8259,0.0591,0.0008,0.0307,3.7752,0.4983,-0.0047,0.0001,0.1524,-0.0001,0.0003,0.0
176,2025-09-01 14:41:33.949995,0.02,0.10472,166.2066,170.3136,95.5914,104.7939,0.0591,0.0008,0.0307,3.7915,0.4983,-0.0047,0.0001,0.1524,0.0001,0.0001,-0.0016
177,2025-09-01 14:41:34.064646,0.02,0.10472,166.9953,171.1252,95.5542,104.7652,0.0591,0.0008,0.0307,3.8058,0.4983,-0.0047,0.0001,0.1524,0.0001,0.0002,-0.0013
178,2025-09-01 14:41:34.184167,0.02,0.10472,167.9541,172.1102,95.5099,104.7297,0.0591,0.0008,0.0307,3.8232,0.4983,-0.0047,0.0001,0.1524,0.0003,0.0,-0.0073
179,2025-09-01 14:41:34.282984,0.02,0.10472,168.913,173.0919,95.4662,104.6935,0.0591,0.0008,0.0307,3.8406,0.4983,-0.0047,0.0001,0.1524,0.0,-0.0002,0.0031
180,2025-09-01 14:41:34.400464,0.02,0.10472,169.79,173.9886,95.4268,104.6597,0.0591,0.0008,0.0307,3.8564,0.4983,-0.0047,0.0001,0.1524,0.0,0.0004,0.0042
181,2025-09-01 14:41:34.501121,0.02,0.10472,170.7227,174.9474,95.3853,104.6229,0.0591,0.0008,0.0307,3.8734,0.4983,-0.0047,0.0001,0.1524,-0.0001,0.0001,0.0013
182,2025-09-01 14:41:34.584825,0.02,0.10472,171.5735,175.8179,95.3483,104.5889,0.0591,0.0008,0.0307,3.8888,0.4983,-0.0047,0.0001,0.1524,0.0,-0.0001,0.0013
183,2025-09-01 14:41:34.700310,0.02,0.10472,172.2967,176.5608,95.3171,104.5596,0.0591,0.0008,0.0307,3.9019,0.4983,-0.0047,0.0001,0.1524,-0.0001,0.0001,0.0004
184,2025-09-01 14:41:34.782894,0.02,0.10472,173.2392,177.5262,95.277,104.5206,0.0591,0.0008,0.0307,3.9189,0.4983,-0.0047,0.0001,0.1524,0.0001,0.0002,-0.0022
185,2025-09-01 14:41:34.883400,0.02,0.10472,173.861,178.1676,95.2509,104.4946,0.0591,0.0008,0.0307,3.9302,0.4983,-0.0047,0.0001,0.1524,-0.0002,0.0,-0.0004
186,2025-09-01 14:41:34.968539,0.02,0.10472,174.81,179.1428,95.2117,104.4542,0.0591,0.0008,0.0307,3.9474,0.4983,-0.0047,0.0001,0.1524,0.0001,-0.0001,-0.0026
187,2025-09-01 14:41:35.067047,0.02,0.10472,175.5005,179.8496,95.1836,104.4244,0.0591,0.0008,0.0307,3.9599,0.4983,-0.0047,0.0001,0.1524,-0.0001,0.0,-0.0031
188,2025-09-01 14:41:35.182858,0.02,0.10472,176.3677,180.7365,95.1488,104.3867,0.0591,0.0008,0.0307,3.9756,0.4983,-0.0047,0.0001,0.1524,0.0,-0.0002,-0.0021
189,2025-09-01 14:41:35.298058,0.02,0.10472,177.3593,181.7542,95.1098,104.3426,0.0591,0.0008,0.0307,3.9936,0.4983,-0.0047,0.0001,0.1524,0.0,0.0003,-0.0029
190,2025-09-01 14:41:35.414860,0.02,0.10472,178.3443,182.7654,95.0719,104.2982,0.0591,0.0008,0.0307,4.0115,0.4983,-0.0047,0.0001,0.1524,0.0,0.0,0.0008
191,2025-09-01 14:41:35.532367,0.02,0.10472,179.3195,183.7668,95.0351,104.2537,0.0591,0.0008,0.0307,4.0291,0.4983,-0.0047,0.0001,0.1524,0.0001,0.0003,-0.0103
192,2025-09-01 14:41:35.649962,0.02,0.10472,180.298,184.7682,94.9991,104.2085,0.0591,0.0008,0.0307,4.0468,0.4983,-0.0047,0.0001,0.1524,-0.0001,-0.0001,0.0026
193,2025-09-01 14:41:35.769714,0.02,0.10472,181.2895,185.7859,94.9633,104.1617,0.0591,0.0008,0.0307,4.0648,0.4983,-0.0047,0.0001,0.1524,-0.0001,0.0,0.0056
194,2025-09-01 14:41:35.867637,0.02,0.10472,182.232,186.7513,94.9301,104.1169,0.0591,0.0008,0.0307,4.0819,0.4983,-0.0047,0.0001,0.1524,0.0,-0.0001,0.0026
195,2025-09-01 14:41:35.968559,0.02,0.10472,183.0632,187.6055,94.9014,104.0767,0.0591,0.0008,0.0307,4.097,0.4983,-0.0047,0.0001,0.1524,0.0,0.0001,-0.0048
196,2025-09-01 14:41:36.067138,0.02,0.10472,183.8977,188.4596,94.8733,104.0362,0.0591,0.0008,0.0307,4.1121,0.4983,-0.0047,0.0001,0.1524,-0.0001,0.0,0.0022
197,2025-09-01 14:41:36.182512,0.02,0.10472,184.7878,189.3759,94.8439,103.9923,0.0591,0.0008,0.0307,4.1282,0.4983,-0.0047,0.0001,0.1524,0.0,0.0,-0.0009
198,2025-09-01 14:41:36.298916,0.02,0.10472,185.7729,190.3838,94.8123,103.9432,0.0591,0.0008,0.0307,4.1461,0.4983,-0.0047,0.0001,0.1524,0.0002,0.0001,-0.0043
199,2025-09-01 14:41:36.414804,0.02,0.10472,186.7579,191.395,94.7815,103.8938,0.0591,0.0008,0.0307,4.1639,0.4983,-0.0047,0.0001,0.1524,0.0001,-0.0001,0.0
200,2025-09-01 14:41:36.532911,0.02,0.10472,187.7265,192.3866,94.7522,103.8444,0.0591,0.0008,0.0307,4.1814,0.4983,-0.0047,0.0001,0.1524,-0.0001,-0.0001,0.0009
201,2025-09-01 14:41:36.650666,0.02,0.10472,188.7181,193.4043,94.723,103.7936,0.0591,0.0008,0.0307,4.1994,0.4983,-0.0047,0.0001,0.1524,-0.0001,-0.0002,0.0031
202,2025-09-01 14:41:36.766606,0.02,0.10472,189.7031,194.4155,94.6949,103.7422,0.0591,0.0008,0.0307,4.2172,0.4983,-0.0047,0.0001,0.1524,0.0,-0.0005,-0.0042
203,2025-09-01 14:41:36.866815,0.02,0.10472,190.6292,195.3645,94.6694,103.6939,0.0591,0.0008,0.0307,4.234,0.4983,-0.0047,0.0001,0.1524,0.0,0.0002,0.0025
204,2025-09-01 14:41:36.985263,0.02,0.10472,191.5292,196.2874,94.6453,103.6461,0.0591,0.0008,0.0307,4.2503,0.4983,-0.0047,0.0001,0.1524,-0.0001,0.0002,0.0039
205,2025-09-01 14:41:37.099038,0.02,0.10472,192.488,197.2691,94.6205,103.5951,0.0591,0.0008,0.0307,4.2677,0.4983,-0.0047,0.0001,0.1524,0.0001,-0.0001,-0.0077
206,2025-09-01 14:41:37.214967,0.02,0.10472,193.4894,198.2967,94.5956,103.5411,0.0591,0.0008,0.0307,4.2858,0.4983,-0.0047,0.0001,0.1524,-0.0002,-0.0001,0.0052
207,2025-09-01 14:41:37.331934,0.02,0.10472,194.4646,199.2981,94.5723,103.4883,0.0591,0.0008,0.0307,4.3035,0.4983,-0.0047,0.0001,0.1524,0.0,0.0,0.0039
208,2025-09-01 14:41:37.448575,0.02,0.10472,195.4496,200.306,94.5497,103.4346,0.0591,0.0008,0.0307,4.3214,0.4983,-0.0047,0.0001,0.1524,-0.0002,-0.0001,0.0051
209,2025-09-01 14:41:37.565759,0.02,0.10472,196.4248,201.3074,94.5282,103.3807,0.0591,0.0008,0.0307,4.3391,0.4983,-0.0047,0.0001,0.1524,0.0001,0.0,0.0004
210,2025-09-01 14:41:37.682079,0.02,0.10472,197.4,202.3088,94.5077,103.3269,0.0591,0.0008,0.0307,4.3567,0.4983,-0.0047,0.0001,0.1524,-0.0003,0.0,0.0017
211,2025-09-01 14:41:37.798555,0.02,0.10472,198.385,203.32,94.488,103.2719,0.0591,0.0008,0.0307,4.3746,0.4983,-0.0047,0.0001,0.1524,-0.0001,0.0004,0.0074
212,2025-09-01 14:41:37.915057,0.02,0.10472,199.3602,204.3181,94.4694,103.217,0.0591,0.0008,0.0307,4.3922,0.4983,-0.0047,0.0001,0.1524,0.0,0.0,-0.0009
213,2025-09-01 14:41:38.033144,0.02,0.10472,200.3518,205.3391,94.4515,103.1611,0.0591,0.0008,0.0307,4.4102,0.4983,-0.0047,0.0001,0.1524,-0.0003,0.0,0.0056
214,2025-09-01 14:41:38.149581,0.02,0.10472,201.3368,206.347,94.4348,103.1053,0.0591,0.0008,0.0307,4.4281,0.4983,-0.0047,0.0001,0.1524,0.0001,-0.0001,-0.0048
215,2025-09-01 14:41:38.266352,0.02,0.10472,202.3055,207.3386,94.4193,103.0499,0.0591,0.0008,0.0307,4.4456,0.4983,-0.0047,0.0001,0.1524,-0.0004,0.0,0.003
216,2025-09-01 14:41:38.382069,0.02,0.10472,203.2971,208.3563,94.4045,102.993,0.0591,0.0008,0.0307,4.4636,0.4983,-0.0047,0.0001,0.1524,-0.0001,-0.0002,0.0004
217,2025-09-01 14:41:38.499284,0.02,0.10472,204.2821,209.3675,94.3907,102.9365,0.0591,0.0008,0.0307,4.4814,0.4983,-0.0047,0.0001,0.1524,0.0,-0.0003,-0.0004
218,2025-09-01 14:41:38.617710,0.02,0.10472,205.2573,210.3689,94.3781,102.8803,0.0591,0.0008,0.0307,4.4991,0.4983,-0.0047,0.0001,0.1524,0.0,-0.0001,-0.0009
219,2025-09-01 14:41:38.733748,0.02,0.10472,206.2521,211.3867,94.3662,102.8223,0.0591,0.0008,0.0307,4.5171,0.4983,-0.0047,0.0001,0.1524,-0.0002,0.0004,0.0074
220,2025-09-01 14:41:38.851637,0.02,0.10472,207.2175,212.3782,94.3558,102.7658,0.0591,0.0008,0.0307,4.5346,0.4983,-0.0047,0.0001,0.1524,0.0001,0.0,0.0022
221,2025-09-01 14:41:38.966419,0.02,0.10472,208.2123,213.396,94.3461,102.7078,0.0591,0.0008,0.0307,4.5526,0.4983,-0.0047,0.0001,0.1524,-0.0001,0.0,0.0051
222,2025-09-01 14:41:39.085234,0.02,0.10472,209.1875,214.3974,94.3375,102.6507,0.0591,0.0008,0.0307,4.5703,0.4983,-0.0047,0.0001,0.1524,-0.0002,0.0,0.0056
223,2025-09-01 14:41:39.200618,0.02,0.10472,210.1628,215.3987,94.3299,102.5935,0.0591,0.0008,0.0307,4.588,0.4983,-0.0047,0.0001,0.1524,0.0002,-0.0002,-0.0034
224,2025-09-01 14:41:39.316107,0.02,0.10472,211.1379,216.4001,94.3234,102.5363,0.0591,0.0008,0.0307,4.6057,0.4983,-0.0047,0.0001,0.1524,-0.0001,-0.0001,0.0004
225,2025-09-01 14:41:39.433634,0.02,0.10472,212.1393,217.4277,94.3177,102.4775,0.0591,0.0008,0.0307,4.6238,0.4983,-0.0047,0.0001,0.1524,0.0,-0.0001,-0.0013
226,2025-09-01 14:41:39.553887,0.02,0.10472,213.108,218.4192,94.3132,102.4207,0.0591,0.0008,0.0307,4.6413,0.4983,-0.0047,0.0001,0.1524,0.0,0.0003,-0.0021
227,2025-09-01 14:41:39.651717,0.02,0.10472,214.0505,219.3846,94.3099,102.3654,0.0591,0.0008,0.0307,4.6584,0.4983,-0.0047,0.0001,0.1524,-0.0001,0.0001,0.0044
228,2025-09-01 14:41:39.767086,0.02,0.10472,214.9406,220.3009,94.3076,102.3129,0.0591,0.0008,0.0307,4.6746,0.4983,-0.0047,0.0001,0.1524,-0.0001,-0.0003,0.0039
229,2025-09-01 14:41:39.885108,0.02,0.10472,215.9092,221.2925,94.3061,102.256,0.0591,0.0008,0.0307,4.6921,0.4983,-0.0047,0.0001,0.1524,0.0,0.0,-0.0021
230,2025-09-01 14:41:39.999627,0.02,0.10472,216.9008,222.3102,94.3055,102.1975,0.0591,0.0008,0.0307,4.7101,0.4983,-0.0047,0.0001,0.1524,0.0001,0.0,-0.009
231,2025-09-01 14:41:40.117604,0.02,0.10472,217.876,223.3116,94.306,102.1399,0.0591,0.0008,0.0307,4.7278,0.4983,-0.0047,0.0001,0.1524,0.0,0.0,-0.0001
232,2025-09-01 14:41:40.233775,0.02,0.10472,218.861,224.3195,94.3075,102.0818,0.0591,0.0008,0.0307,4.7456,0.4983,-0.0047,0.0001,0.1524,-0.0002,0.0,0.0021
233,2025-09-01 14:41:40.353763,0.02,0.10472,219.846,225.3307,94.3101,102.0237,0.0591,0.0008,0.0307,4.7634,0.4983,-0.0047,0.0001,0.1524,-0.0001,0.0002,0.0034
234,2025-09-01 14:41:40.466294,0.02,0.10472,220.8311,226.3387,94.3137,101.9655,0.0591,0.0008,0.0307,4.7813,0.4983,-0.0047,0.0001,0.1524,-0.0001,0.0,0.003
235,2025-09-01 14:41:40.587785,0.02,0.10472,221.7964,227.3335,94.3183,101.9083,0.0591,0.0008,0.0307,4.7988,0.4983,-0.0047,0.0001,0.1524,0.0,0.0001,0.0013
236,2025-09-01 14:41:40.699645,0.02,0.10472,222.7913,228.3513,94.3241,101.8495,0.0591,0.0008,0.0307,4.8168,0.4983,-0.0047,0.0001,0.1524,0.0,-0.0002,0.0013
237,2025-09-01 14:41:40.816101,0.02,0.10472,223.7763,229.3592,94.3308,101.7914,0.0591,0.0008,0.0307,4.8346,0.4983,-0.0047,0.0001,0.1524,0.0001,-0.0002,-0.0013
238,2025-09-01 14:41:40.931629,0.02,0.10472,224.7417,230.3508,94.3384,101.7348,0.0591,0.0008,0.0307,4.8522,0.4983,-0.0047,0.0001,0.1524,0.0,-0.0001,0.0013
239,2025-09-01 14:41:41.049834,0.02,0.10472,225.7431,231.3783,94.3472,101.6763,0.0591,0.0008,0.0307,4.8703,0.4983,-0.0047,0.0001,0.1524,0.0001,-0.0005,-0.0034
240,2025-09-01 14:41:41.166189,0.02,0.10472,226.7183,232.3797,94.357,101.6192,0.0591,0.0008,0.0307,4.888,0.4983,-0.0047,0.0001,0.1524,0.0,-0.0001,-0.0005
241,2025-09-01 14:41:41.282359,0.02,0.10472,227.6869,233.3713,94.3676,101.5626,0.0591,0.0008,0.0307,4.9055,0.4983,-0.0047,0.0001,0.1524,-0.0001,-0.0003,0.006
242,2025-09-01 14:41:41.398890,0.02,0.10472,228.672,234.3825,94.3795,101.5058,0.0591,0.0008,0.0307,4.9234,0.4983,-0.0047,0.0001,0.1524,-0.0001,-0.0002,-0.0013
243,2025-09-01 14:41:41.519112,0.02,0.10472,229.657,235.3904,94.3924,101.4489,0.0591,0.0008,0.0307,4.9412,0.4983,-0.0047,0.0001,0.1524,0.0,-0.0004,0.0
244,2025-09-01 14:41:41.616913,0.02,0.10472,230.5962,236.359,94.4056,101.3945,0.0591,0.0008,0.0307,4.9583,0.4983,-0.0047,0.0001,0.1524,-0.0001,0.0003,0.0069
245,2025-09-01 14:41:41.737710,0.02,0.10472,231.4732,237.2557,94.4187,101.3444,0.0591,0.0008,0.0307,4.9741,0.4983,-0.0047,0.0001,0.1524,-0.0002,0.0002,0.0061
246,2025-09-01 14:41:41.851004,0.02,0.10472,232.4582,238.2636,94.4344,101.2883,0.0591,0.0008,0.0307,4.992,0.4983,-0.0047,0.0001,0.1524,-0.0001,-0.0001,0.0022
247,2025-09-01 14:41:41.966809,0.02,0.10472,233.4334,239.265,94.451,101.2327,0.0591,0.0008,0.0307,5.0096,0.4983,-0.0047,0.0001,0.1524,-0.0001,-0.0002,0.0025
248,2025-09-01 14:41:42.082594,0.02,0.10472,234.425,240.2828,94.4688,101.1769,0.0591,0.0008,0.0307,5.0276,0.4983,-0.0047,0.0001,0.1524,0.0,0.0002,0.0017
249,2025-09-01 14:41:42.200906,0.02,0.10472,235.41,241.294,94.4875,101.1215,0.0591,0.0008,0.0307,5.0455,0.4983,-0.0047,0.0001,0.1524,0.0001,0.0,-0.0043
250,2025-09-01 14:41:42.284655,0.02,0.10472,236.3198,242.2266,94.5056,101.0709,0.0591,0.0008,0.0307,5.0619,0.4983,-0.0047,0.0001,0.1524,-0.0001,0.0001,0.0026
251,2025-09-01 14:41:42.399530,0.02,0.10472,237.0921,243.0186,94.5217,101.028,0.0591,0.0008,0.0307,5.076,0.4983,-0.0047,0.0001,0.1524,0.0001,0.0001,-0.0009
252,2025-09-01 14:41:42.518608,0.02,0.10472,238.0771,244.0298,94.5431,100.9735,0.0591,0.0008,0.0307,5.0938,0.4983,-0.0047,0.0001,0.1524,-0.0002,0.0001,0.0043
253,2025-09-01 14:41:42.632631,0.02,0.10472,239.0523,245.0311,94.5652,100.9203,0.0591,0.0008,0.0307,5.1115,0.4983,-0.0047,0.0001,0.1524,-0.0001,-0.0001,-0.0004
254,2025-09-01 14:41:42.752115,0.02,0.10472,240.0275,246.0293,94.5882,100.8671,0.0591,0.0008,0.0307,5.1291,0.4983,-0.0047,0.0001,0.1524,-0.0001,0.0004,0.0094
255,2025-09-01 14:41:42.833895,0.02,0.10472,240.9536,246.9783,94.6109,100.8173,0.0591,0.0008,0.0307,5.1459,0.4983,-0.0047,0.0001,0.1524,-0.0001,0.0002,0.0
256,2025-09-01 14:41:42.949041,0.02,0.10472,241.7096,247.7571,94.6302,100.7766,0.0591,0.0008,0.0307,5.1596,0.4983,-0.0047,0.0001,0.1524,-0.0001,-0.0004,0.0005
257,2025-09-01 14:41:43.064577,0.02,0.10472,242.7044,248.7749,94.6562,100.724,0.0591,0.0008,0.0307,5.1776,0.4983,-0.0047,0.0001,0.1524,-0.0001,-0.0001,0.0091
258,2025-09-01 14:41:43.181905,0.02,0.10472,243.6894,249.7828,94.683,100.6721,0.0591,0.0008,0.0307,5.1955,0.4983,-0.0047,0.0001,0.1524,0.0,0.0,-0.0004
259,2025-09-01 14:41:43.299080,0.02,0.10472,244.6646,250.7842,94.7104,100.6212,0.0591,0.0008,0.0307,5.2131,0.4983,-0.0047,0.0001,0.1524,-0.0001,0.0002,0.0026
260,2025-09-01 14:41:43.416589,0.02,0.10472,245.6496,251.7954,94.7389,100.5704,0.0591,0.0008,0.0307,5.231,0.4983,-0.0047,0.0001,0.1524,-0.0001,0.0,0.003
261,2025-09-01 14:41:43.533407,0.02,0.10472,246.6248,252.7968,94.7682,100.5203,0.0591,0.0008,0.0307,5.2487,0.4983,-0.0047,0.0001,0.1524,0.0001,0.0002,-0.0038
262,2025-09-01 14:41:43.648527,0.02,0.10472,247.6099,253.8047,94.7985,100.4707,0.0591,0.0008,0.0307,5.2665,0.4983,-0.0047,0.0001,0.1524,0.0,0.0006,0.0034
263,2025-09-01 14:41:43.769694,0.02,0.10472,248.5851,254.8061,94.8295,100.4218,0.0591,0.0008,0.0307,5.2842,0.4983,-0.0047,0.0001,0.1524,0.0001,-0.0002,-0.0039
264,2025-09-01 14:41:43.884011,0.02,0.10472,249.5766,255.8238,94.8619,100.3726,0.0591,0.0008,0.0307,5.3022,0.4983,-0.0047,0.0001,0.1524,0.0,0.0001,-0.0039
265,2025-09-01 14:41:44.001937,0.02,0.10472,250.5453,256.8154,94.8943,100.3254,0.0591,0.0008,0.0307,5.3197,0.4983,-0.0047,0.0001,0.1524,-0.0001,-0.0001,0.003
266,2025-09-01 14:41:44.115516,0.02,0.10472,251.5303,257.8266,94.9281,100.2779,0.0591,0.0008,0.0307,5.3375,0.4983,-0.0047,0.0001,0.1524,0.0001,-0.0001,-0.0042
267,2025-09-01 14:41:44.232141,0.02,0.10472,252.5055,258.828,94.9624,100.2314,0.0591,0.0008,0.0307,5.3552,0.4983,-0.0047,0.0001,0.1524,0.0,-0.0002,0.0013
268,2025-09-01 14:41:44.350500,0.02,0.10472,253.4971,259.8457,94.9982,100.1846,0.0591,0.0008,0.0307,5.3732,0.4983,-0.0047,0.0001,0.1524,0.0001,0.0,-0.0021
269,2025-09-01 14:41:44.465492,0.02,0.10472,254.4821,260.8536,95.0344,100.1391,0.0591,0.0008,0.0307,5.391,0.4983,-0.0047,0.0001,0.1524,0.0,0.0001,0.0004
270,2025-09-01 14:41:44.583408,0.02,0.10472,255.4573,261.855,95.0712,100.0945,0.0591,0.0008,0.0307,5.4087,0.4983,-0.0047,0.0001,0.1524,-0.0001,0.0001,0.0069
271,2025-09-01 14:41:44.698687,0.02,0.10472,256.4325,262.8564,95.1089,100.0505,0.0591,0.0008,0.0307,5.4264,0.4983,-0.0047,0.0001,0.1524,0.0001,0.0001,-0.0021
272,2025-09-01 14:41:44.815069,0.02,0.10472,257.4273,263.8741,95.1479,100.0064,0.0591,0.0008,0.0307,5.4444,0.4983,-0.0047,0.0001,0.1524,0.0,-0.0001,-0.0013
273,2025-09-01 14:41:44.932735,0.02,0.10472,258.4026,264.8755,95.187,99.9638,0.0591,0.0008,0.0307,5.4621,0.4983,-0.0047,0.0001,0.1524,0.0001,-0.0002,-0.0035
274,2025-09-01 14:41:45.053635,0.02,0.10472,259.3876,265.8835,95.2272,99.9216,0.0591,0.0008,0.0307,5.4799,0.4983,-0.0047,0.0001,0.1524,0.0001,0.0001,-0.0013
275,2025-09-01 14:41:45.166181,0.02,0.10472,260.3791,266.9045,95.2684,99.8798,0.0591,0.0008,0.0307,5.4979,0.4983,-0.0047,0.0001,0.1524,0.0,-0.0001,-0.0004
276,2025-09-01 14:41:45.285591,0.02,0.10472,261.3478,267.8961,95.3095,99.8397,0.0591,0.0008,0.0307,5.5154,0.4983,-0.0047,0.0001,0.1524,0.0,0.0001,0.0005
277,2025-09-01 14:41:45.399108,0.02,0.10472,262.323,268.8974,95.3516,99.8,0.0591,0.0008,0.0307,5.5331,0.4983,-0.0047,0.0001,0.1524,0.0,0.0001,0.0021
278,2025-09-01 14:41:45.514744,0.02,0.10472,263.3146,269.9152,95.395,99.7604,0.0591,0.0008,0.0307,5.5511,0.4983,-0.0047,0.0001,0.1524,0.0,0.0,0.0026
279,2025-09-01 14:41:45.633129,0.02,0.10472,264.2898,270.9166,95.4384,99.7221,0.0591,0.0008,0.0307,5.5688,0.4983,-0.0047,0.0001,0.1524,0.0,0.0002,-0.0012
280,2025-09-01 14:41:45.748848,0.02,0.10472,265.2748,271.9245,95.483,99.6844,0.0591,0.0008,0.0307,5.5866,0.4983,-0.0047,0.0001,0.1524,-0.0001,0.0,0.003
281,2025-09-01 14:41:45.865220,0.02,0.10472,266.2434,272.916,95.5273,99.6481,0.0591,0.0008,0.0307,5.6041,0.4983,-0.0047,0.0001,0.1524,0.0001,0.0001,-0.0043
282,2025-09-01 14:41:45.981727,0.02,0.10472,267.235,273.9371,95.5734,99.6117,0.0591,0.0008,0.0307,5.6221,0.4983,-0.0047,0.0001,0.1524,0.0002,0.0,-0.0061
283,2025-09-01 14:41:46.098233,0.02,0.10472,268.22,274.945,95.6199,99.5764,0.0591,0.0008,0.0307,5.64,0.4983,-0.0047,0.0001,0.1524,0.0,0.0,0.0022
284,2025-09-01 14:41:46.215562,0.02,0.10472,269.1952,275.9464,95.6666,99.5422,0.0591,0.0008,0.0307,5.6576,0.4983,-0.0047,0.0001,0.1524,-0.0001,0.0,0.0026
285,2025-09-01 14:41:46.337094,0.02,0.10472,270.1901,276.9641,95.7145,99.5083,0.0591,0.0008,0.0307,5.6756,0.4983,-0.0047,0.0001,0.1524,-0.0001,-0.0001,0.0026
286,2025-09-01 14:41:46.451496,0.02,0.10472,271.1816,277.9819,95.7634,99.4752,0.0591,0.0008,0.0307,5.6936,0.4983,-0.0047,0.0001,0.1524,0.0,0.0002,-0.0039
287,2025-09-01 14:41:46.567543,0.02,0.10472,272.1503,278.9734,95.8113,99.4439,0.0591,0.0008,0.0307,5.7111,0.4983,-0.0047,0.0001,0.1524,0.0001,0.0,-0.0048
288,2025-09-01 14:41:46.682166,0.02,0.10472,273.1255,279.9748,95.8603,99.4131,0.0591,0.0008,0.0307,5.7288,0.4983,-0.0047,0.0001,0.1524,-0.0002,-0.0001,0.0051
289,2025-09-01 14:41:46.799447,0.02,0.10472,274.1007,280.9762,95.9098,99.3832,0.0591,0.0008,0.0307,5.7465,0.4983,-0.0047,0.0001,0.1524,-0.0001,0.0002,-0.0009
290,2025-09-01 14:41:46.915529,0.02,0.10472,275.0923,281.994,95.9606,99.3537,0.0591,0.0008,0.0307,5.7645,0.4983,-0.0047,0.0001,0.1524,0.0001,-0.0002,0.0
291,2025-09-01 14:41:47.016923,0.02,0.10472,275.9268,282.8481,96.0038,99.3297,0.0591,0.0008,0.0307,5.7796,0.4983,-0.0047,0.0001,0.1524,0.0,0.0001,-0.0004
292,2025-09-01 14:41:47.133463,0.02,0.10472,276.9117,283.8593,96.0551,99.3021,0.0591,0.0008,0.0307,5.7974,0.4983,-0.0047,0.0001,0.1524,-0.0001,0.0001,0.0004
293,2025-09-01 14:41:47.248739,0.02,0.10472,277.8771,284.8509,96.1062,99.2759,0.0591,0.0008,0.0307,5.815,0.4983,-0.0047,0.0001,0.1524,0.0001,-0.0002,-0.0056
294,2025-09-01 14:41:47.365525,0.02,0.10472,278.8785,285.8784,96.1594,99.2496,0.0591,0.0008,0.0307,5.8331,0.4983,-0.0047,0.0001,0.1524,0.0001,0.0002,-0.003
295,2025-09-01 14:41:47.482682,0.02,0.10472,279.8537,286.8798,96.2117,99.2251,0.0591,0.0008,0.0307,5.8508,0.4983,-0.0047,0.0001,0.1524,0.0,0.0001,-0.0017
296,2025-09-01 14:41:47.598271,0.02,0.10472,280.8322,287.8779,96.2645,99.2015,0.0591,0.0008,0.0307,5.8685,0.4983,-0.0047,0.0001,0.1524,-0.0001,0.0001,0.0034
297,2025-09-01 14:41:47.715787,0.02,0.10472,281.814,288.8891,96.3179,99.1786,0.0591,0.0008,0.0307,5.8863,0.4983,-0.0047,0.0001,0.1524,-0.0001,0.0,0.0051
298,2025-09-01 14:41:47.832646,0.02,0.10472,282.7826,289.8807,96.3713,99.157,0.0591,0.0008,0.0307,5.9038,0.4983,-0.0047,0.0001,0.1524,0.0,0.0003,0.0038
299,2025-09-01 14:41:47.947684,0.02,0.10472,283.784,290.9082,96.4266,99.1357,0.0591,0.0008,0.0307,5.922,0.4983,-0.0047,0.0001,0.1524,0.0001,-0.0001,-0.003
300,2025-09-01 14:41:48.065889,0.02,0.10472,284.769,291.9161,96.4813,99.1157,0.0591,0.0008,0.0307,5.9398,0.4983,-0.0047,0.0001,0.1524,0.0,-0.0001,0.003
301,2025-09-01 14:41:48.181695,0.02,0.10472,285.7442,292.9175,96.5361,99.0968,0.0591,0.0008,0.0307,5.9575,0.4983,-0.0047,0.0001,0.1524,0.0001,0.0,-0.0063
302,2025-09-01 14:41:48.299563,0.02,0.10472,286.7292,293.9287,96.5915,99.0787,0.0591,0.0008,0.0307,5.9753,0.4983,-0.0047,0.0001,0.1524,0.0,0.0001,-0.0009
303,2025-09-01 14:41:48.416323,0.02,0.10472,287.7143,294.9366,96.6471,99.0616,0.0591,0.0008,0.0307,5.9932,0.4983,-0.0047,0.0001,0.1524,-0.0001,0.0,0.0008
304,2025-09-01 14:41:48.532650,0.02,0.10472,288.6895,295.938,96.7029,99.0457,0.0591,0.0008,0.0307,6.0108,0.4983,-0.0047,0.0001,0.1524,0.0001,0.0,-0.0004
305,2025-09-01 14:41:48.647333,0.02,0.10472,289.6745,296.9492,96.7593,99.0306,0.0591,0.0008,0.0307,6.0287,0.4983,-0.0047,0.0001,0.1524,-0.0001,0.0001,0.0047
306,2025-09-01 14:41:48.765650,0.02,0.10472,290.6497,297.9506,96.8153,99.0167,0.0591,0.0008,0.0307,6.0464,0.4983,-0.0047,0.0001,0.1524,0.0001,-0.0001,-0.0068
307,2025-09-01 14:41:48.883637,0.02,0.10472,291.6347,298.9586,96.8718,99.0037,0.0591,0.0008,0.0307,6.0642,0.4983,-0.0047,0.0001,0.1524,-0.0001,-0.0003,0.0069
308,2025-09-01 14:41:48.999773,0.02,0.10472,292.6165,299.9665,96.9292,98.9916,0.0591,0.0008,0.0307,6.082,0.4983,-0.0047,0.0001,0.1524,0.0,0.0003,-0.0021
309,2025-09-01 14:41:49.115649,0.02,0.10472,293.6015,300.9777,96.9867,98.9806,0.0591,0.0008,0.0307,6.0999,0.4983,-0.0047,0.0001,0.1524,0.0,-0.0001,0.0042
310,2025-09-01 14:41:49.232792,0.02,0.10472,294.5767,301.9791,97.0437,98.9706,0.0591,0.0008,0.0307,6.1175,0.4983,-0.0047,0.0001,0.1524,0.0001,-0.0001,-0.0047
311,2025-09-01 14:41:49.350015,0.02,0.10472,295.5551,302.9804,97.1008,98.9617,0.0591,0.0008,0.0307,6.1352,0.4983,-0.0047,0.0001,0.1524,0.0,-0.0003,0.0009
312,2025-09-01 14:41:49.464217,0.02,0.10472,296.5304,303.9818,97.158,98.9539,0.0591,0.0008,0.0307,6.1529,0.4983,-0.0047,0.0001,0.1524,-0.0002,0.0001,0.003
313,2025-09-01 14:41:49.581655,0.02,0.10472,297.5317,305.0061,97.2167,98.9469,0.0591,0.0008,0.0307,6.171,0.4983,-0.0047,0.0001,0.1524,0.0001,-0.0001,-0.0064
314,2025-09-01 14:41:49.697843,0.02,0.10472,298.5069,306.0075,97.2739,98.941,0.0591,0.0008,0.0307,6.1887,0.4983,-0.0047,0.0001,0.1524,0.0,0.0,-0.0009
315,2025-09-01 14:41:49.814558,0.02,0.10472,299.492,307.0187,97.3317,98.9361,0.0591,0.0008,0.0307,6.2066,0.4983,-0.0047,0.0001,0.1524,-0.0001,0.0,0.0035
316,2025-09-01 14:41:49.934290,0.02,0.10472,300.4574,308.0103,97.3885,98.9323,0.0591,0.0008,0.0307,6.2241,0.4983,-0.0047,0.0001,0.1524,-0.0002,0.0001,0.0069
317,2025-09-01 14:41:50.048924,0.02,0.10472,301.4424,309.0182,97.4464,98.9295,0.0591,0.0008,0.0307,6.2419,0.4983,-0.0047,0.0001,0.1524,0.0,0.0,0.0007
318,2025-09-01 14:41:50.165409,0.02,0.10472,302.4339,310.0392,97.5049,98.9278,0.0591,0.0008,0.0307,6.2599,0.4983,-0.0047,0.0001,0.1524,-0.0003,-0.0002,0.0098
319,2025-09-01 14:41:50.281946,0.02,0.10472,303.4124,311.0373,97.5623,98.9271,0.0591,0.0008,0.0307,6.2776,0.4983,-0.0047,0.0001,0.1524,0.0001,0.0001,-0.0021
320,2025-09-01 14:41:50.399205,0.02,0.10472,304.3876,312.0387,97.6199,98.9274,0.0591,0.0008,0.0307,0.0121,0.4983,-0.0047,0.0001,0.1524,0.0001,0.0,-0.0022
321,2025-09-01 14:41:50.515116,0.02,0.10472,305.3628,313.0401,97.6775,98.9287,0.0591,0.0008,0.0307,0.0298,0.4983,-0.0047,0.0001,0.1524,-0.0001,0.0,0.003
322,2025-09-01 14:41:50.632092,0.02,0.10472,306.3544,314.0578,97.7361,98.9311,0.0591,0.0008,0.0307,0.0478,0.4983,-0.0047,0.0001,0.1524,-0.0001,0.0,0.0013
323,2025-09-01 14:41:50.750657,0.02,0.10472,307.3394,315.069,97.7943,98.9345,0.0591,0.0008,0.0307,0.0656,0.4983,-0.0047,0.0001,0.1524,-0.0002,0.0001,0.0043
324,2025-09-01 14:41:50.867790,0.02,0.10472,308.3244,316.077,97.8525,98.939,0.0591,0.0008,0.0307,0.0834,0.4983,-0.0047,0.0001,0.1524,0.0001,-0.0001,-0.0013
325,2025-09-01 14:41:50.982976,0.02,0.10472,309.2996,317.0783,97.9103,98.9445,0.0591,0.0008,0.0307,0.1011,0.4983,-0.0047,0.0001,0.1524,0.0002,0.0,-0.006
326,2025-09-01 14:41:51.097393,0.02,0.10472,310.2846,318.0895,97.9686,98.951,0.0591,0.0008,0.0307,0.119,0.4983,-0.0047,0.0001,0.1524,-0.0002,0.0003,0.0094
327,2025-09-01 14:41:51.215680,0.02,0.10472,311.2697,319.0975,98.0261,98.9586,0.0591,0.0008,0.0307,0.1368,0.4983,-0.0047,0.0001,0.1524,-0.0001,0.0,-0.0013
328,2025-09-01 14:41:51.331538,0.02,0.10472,312.2448,320.0988,98.0831,98.9671,0.0591,0.0008,0.0307,0.1545,0.4983,-0.0047,0.0001,0.1524,-0.0001,0.0,0.0064
329,2025-09-01 14:41:51.447109,0.02,0.10472,313.2299,321.1068,98.1407,98.9767,0.0591,0.0008,0.0307,0.1723,0.4983,-0.0047,0.0001,0.1524,-0.0001,0.0001,0.0061
330,2025-09-01 14:41:51.564518,0.02,0.10472,314.2051,322.1082,98.1978,98.9872,0.0591,0.0008,0.0307,0.19,0.4983,-0.0047,0.0001,0.1524,0.0001,-0.0001,-0.0056
331,2025-09-01 14:41:51.682012,0.02,0.10472,315.1967,323.1259,98.2553,98.999,0.0591,0.0008,0.0307,0.208,0.4983,-0.0047,0.0001,0.1524,0.0001,0.0001,-0.003
332,2025-09-01 14:41:51.797255,0.02,0.10472,316.1751,324.1273,98.3116,99.0115,0.0591,0.0008,0.0307,0.2257,0.4983,-0.0047,0.0001,0.1524,0.0001,0.0001,0.0004
333,2025-09-01 14:41:51.915486,0.02,0.10472,317.1503,325.1287,98.368,99.0251,0.0591,0.0008,0.0307,0.2434,0.4983,-0.0047,0.0001,0.1524,0.0,-0.0001,0.0004
334,2025-09-01 14:41:52.031682,0.02,0.10472,318.1353,326.1399,98.4244,99.0398,0.0591,0.0008,0.0307,0.2612,0.4983,-0.0047,0.0001,0.1524,-0.0001,0.0001,0.0039
335,2025-09-01 14:41:52.148536,0.02,0.10472,319.1007,327.1314,98.4795,99.0552,0.0591,0.0008,0.0307,0.2787,0.4983,-0.0047,0.0001,0.1524,-0.0001,-0.0003,0.0017
336,2025-09-01 14:41:52.264968,0.02,0.10472,320.1021,328.159,98.5366,99.0722,0.0591,0.0008,0.0307,0.2969,0.4983,-0.0047,0.0001,0.1524,0.0001,0.0,-0.0025
337,2025-09-01 14:41:52.383573,0.02,0.10472,321.0708,329.1505,98.591,99.0895,0.0591,0.0008,0.0307,0.3144,0.4983,-0.0047,0.0001,0.1524,0.0001,0.0,-0.0056
338,2025-09-01 14:41:52.467188,0.02,0.10472,321.9871,330.0898,98.6426,99.1068,0.0591,0.0008,0.0307,0.331,0.4983,-0.0047,0.0001,0.1524,0.0001,0.0,-0.0017
339,2025-09-01 14:41:52.582046,0.02,0.10472,322.7627,330.885,98.6859,99.1222,0.0591,0.0008,0.0307,0.345,0.4983,-0.0047,0.0001,0.1524,0.0001,0.0001,-0.0078
340,2025-09-01 14:41:52.683441,0.02,0.10472,323.5939,331.7391,98.732,99.1393,0.0591,0.0008,0.0307,0.3601,0.4983,-0.0047,0.0001,0.1524,-0.0001,-0.0001,0.0021
341,2025-09-01 14:41:52.798460,0.02,0.10472,324.5854,332.7568,98.787,99.1606,0.0591,0.0008,0.0307,0.3781,0.4983,-0.0047,0.0001,0.1524,0.0,0.0001,0.003
342,2025-09-01 14:41:52.916848,0.02,0.10472,325.5704,333.768,98.8408,99.1828,0.0591,0.0008,0.0307,0.3959,0.4983,-0.0047,0.0001,0.1524,0.0002,-0.0001,-0.0039
343,2025-09-01 14:41:53.033346,0.02,0.10472,326.5457,334.7661,98.8941,99.2056,0.0591,0.0008,0.0307,0.4136,0.4983,-0.0047,0.0001,0.1524,-0.0001,0.0003,0.0021
344,2025-09-01 14:41:53.132557,0.02,0.10472,327.4554,335.6988,98.943,99.2278,0.0591,0.0008,0.0307,0.4301,0.4983,-0.0047,0.0001,0.1524,-0.0001,0.0,0.003
345,2025-09-01 14:41:53.216876,0.02,0.10472,328.2964,336.5628,98.9883,99.2491,0.0591,0.0008,0.0307,0.4453,0.4983,-0.0047,0.0001,0.1524,0.0001,0.0,-0.0021
346,2025-09-01 14:41:53.332282,0.02,0.10472,329.0622,337.3481,99.0289,99.269,0.0591,0.0008,0.0307,0.4592,0.4983,-0.0047,0.0001,0.1524,0.0,0.0,0.0048
347,2025-09-01 14:41:53.448269,0.02,0.10472,330.0538,338.3659,99.0815,99.2956,0.0591,0.0008,0.0307,0.4772,0.4983,-0.0047,0.0001,0.1524,0.0,-0.0001,0.0013
348,2025-09-01 14:41:53.566342,0.02,0.10472,331.0323,339.3673,99.1324,99.3227,0.0591,0.0008,0.0307,0.4949,0.4983,-0.0047,0.0001,0.1524,0.0001,0.0002,-0.0004
349,2025-09-01 14:41:53.682045,0.02,0.10472,332.014,340.3752,99.1835,99.351,0.0591,0.0008,0.0307,0.5127,0.4983,-0.0047,0.0001,0.1524,0.0,-0.0002,0.0059
350,2025-09-01 14:41:53.797371,0.02,0.10472,332.9925,341.3766,99.2336,99.3799,0.0591,0.0008,0.0307,0.5304,0.4983,-0.0047,0.0001,0.1524,0.0,0.0,0.0022
351,2025-09-01 14:41:53.915617,0.02,0.10472,333.9742,342.3878,99.2835,99.41,0.0591,0.0008,0.0307,0.5482,0.4983,-0.0047,0.0001,0.1524,0.0,0.0002,0.0017
352,2025-09-01 14:41:54.032734,0.02,0.10472,334.9527,343.3859,99.3326,99.4406,0.0591,0.0008,0.0307,0.5659,0.4983,-0.0047,0.0001,0.1524,0.0002,0.0,-0.006
353,2025-09-01 14:41:54.148305,0.02,0.10472,335.9344,344.3971,99.3814,99.4724,0.0591,0.0008,0.0307,0.5838,0.4983,-0.0047,0.0001,0.1524,0.0,-0.0001,0.0013
354,2025-09-01 14:41:54.266272,0.02,0.10472,336.9293,345.4149,99.4301,99.5054,0.0591,0.0008,0.0307,0.6017,0.4983,-0.0047,0.0001,0.1524,0.0,0.0,-0.0022
355,2025-09-01 14:41:54.382319,0.02,0.10472,337.9045,346.4162,99.4775,99.5386,0.0591,0.0008,0.0307,0.6194,0.4983,-0.0047,0.0001,0.1524,0.0001,0.0001,-0.0009
356,2025-09-01 14:41:54.499543,0.02,0.10472,338.8797,347.4176,99.5242,99.5727,0.0591,0.0008,0.0307,0.6371,0.4983,-0.0047,0.0001,0.1524,-0.0001,0.0002,0.0056
357,2025-09-01 14:41:54.614829,0.02,0.10472,339.8647,348.4256,99.5706,99.6079,0.0591,0.0008,0.0307,0.655,0.4983,-0.0047,0.0001,0.1524,0.0001,0.0,-0.0056
358,2025-09-01 14:41:54.733626,0.02,0.10472,340.8497,349.4367,99.6165,99.644,0.0591,0.0008,0.0307,0.6728,0.4983,-0.0047,0.0001,0.1524,0.0,-0.0002,-0.003
359,2025-09-01 14:41:54.831676,0.02,0.10472,341.6908,350.2974,99.6553,99.6755,0.0591,0.0008,0.0307,0.688,0.4983,-0.0047,0.0001,0.1524,0.0001,-0.0002,-0.0009
360,2025-09-01 14:41:54.948719,0.02,0.10472,342.6758,351.3086,99.6999,99.713,0.0591,0.0008,0.0307,0.7059,0.4983,-0.0047,0.0001,0.1524,0.0,-0.0001,0.0051
361,2025-09-01 14:41:55.067677,0.02,0.10472,343.651,352.31,99.7434,99.751,0.0591,0.0008,0.0307,0.7236,0.4983,-0.0047,0.0001,0.1524,0.0001,0.0001,0.0
362,2025-09-01 14:41:55.167144,0.02,0.10472,344.5771,353.259,99.7841,99.7876,0.0591,0.0008,0.0307,0.7403,0.4983,-0.0047,0.0001,0.1524,0.0001,-0.0002,-0.003
363,2025-09-01 14:41:55.282928,0.02,0.10472,345.4672,354.172,99.8228,99.8238,0.0591,0.0008,0.0307,0.7565,0.4983,-0.0047,0.0001,0.1524,0.0,0.0001,0.0026
364,2025-09-01 14:41:55.400599,0.02,0.10472,346.4522,355.1832,99.8649,99.8643,0.0591,0.0008,0.0307,0.7743,0.4983,-0.0047,0.0001,0.1524,-0.0001,0.0,0.0
365,2025-09-01 14:41:55.466573,0.02,0.10472,347.3685,356.1224,99.9033,99.9026,0.0591,0.0008,0.0307,0.7909,0.4983,-0.0047,0.0001,0.1524,0.0001,-0.0002,-0.0039
366,2025-09-01 14:41:55.584065,0.02,0.10472,348.0001,356.7704,99.9293,99.9294,0.0591,0.0008,0.0307,0.8024,0.4983,-0.0047,0.0001,0.1524,-0.0001,0.0,0.0051
367,2025-09-01 14:41:55.655113,0.02,0.10472,348.9426,357.7358,99.9677,99.97,0.0591,0.0008,0.0307,0.8194,0.4983,-0.0047,0.0001,0.1524,0.0001,0.0,-0.006
368,2025-09-01 14:41:55.749050,0.02,0.10472,349.5382,358.351,99.9917,99.996,0.0591,0.0008,0.0307,0.8303,0.4983,-0.0047,0.0001,0.1524,-0.0001,0.0,0.0004
369,2025-09-01 14:41:55.864745,0.02,0.10472,350.3792,359.2117,100.0249,100.0332,0.0591,0.0008,0.0307,0.8455,0.4983,-0.0047,0.0001,0.1524,-0.0002,0.0001,0.0052
370,2025-09-01 14:41:55.982901,0.02,0.10472,351.3642,360.2229,100.0631,100.0772,0.0591,0.0008,0.0307,0.8633,0.4983,-0.0047,0.0001,0.1524,-0.0001,-0.0001,-0.0017
371,2025-09-01 14:41:56.102390,0.02,0.10472,352.3492,361.2308,100.1005,100.1219,0.0591,0.0008,0.0307,0.8812,0.4983,-0.0047,0.0001,0.1524,-0.0001,-0.0001,0.0073
372,2025-09-01 14:41:56.216580,0.02,0.10472,353.3179,362.2224,100.1365,100.1666,0.0591,0.0008,0.0307,0.8987,0.4983,-0.0047,0.0001,0.1524,0.0001,0.0001,-0.0039
373,2025-09-01 14:41:56.331959,0.02,0.10472,354.3095,363.2434,100.1727,100.213,0.0591,0.0008,0.0307,0.9167,0.4983,-0.0047,0.0001,0.1524,0.0001,-0.0002,0.0013
374,2025-09-01 14:41:56.449795,0.02,0.10472,355.2847,364.2415,100.2073,100.2592,0.0591,0.0008,0.0307,0.9344,0.4983,-0.0047,0.0001,0.1524,0.0,0.0001,0.0043
375,2025-09-01 14:41:56.567050,0.02,0.10472,356.2795,365.2625,100.2418,100.307,0.0591,0.0008,0.0307,0.9524,0.4983,-0.0047,0.0001,0.1524,-0.0001,0.0001,0.0056
376,2025-09-01 14:41:56.682346,0.02,0.10472,357.2547,366.2606,100.2748,100.3545,0.0591,0.0008,0.0307,0.97,0.4983,-0.0047,0.0001,0.1524,-0.0001,0.0,0.003
377,2025-09-01 14:41:56.797353,0.02,0.10472,358.2397,367.2719,100.3072,100.4029,0.0591,0.0008,0.0307,0.9879,0.4983,-0.0047,0.0001,0.1524,-0.0001,0.0001,0.0009
378,2025-09-01 14:41:56.915248,0.02,0.10472,359.2149,368.2732,100.3385,100.4516,0.0591,0.0008,0.0307,1.0056,0.4983,-0.0047,0.0001,0.1524,0.0001,0.0002,-0.0021
379,2025-09-01 14:41:57.031631,0.02,0.10472,360.2,369.2812,100.3692,100.501,0.0591,0.0008,0.0307,1.0234,0.4983,-0.0047,0.0001,0.1524,-0.0001,0.0002,-0.0008
380,2025-09-01 14:41:57.148595,0.02,0.10472,361.1752,370.2825,100.3988,100.5509,0.0591,0.0008,0.0307,1.0411,0.4983,-0.0047,0.0001,0.1524,0.0001,0.0001,-0.0004
381,2025-09-01 14:41:57.264309,0.02,0.10472,362.1667,371.3003,100.4279,100.6019,0.0591,0.0008,0.0307,1.0591,0.4983,-0.0047,0.0001,0.1524,0.0001,0.0001,0.0004
382,2025-09-01 14:41:57.384865,0.02,0.10472,363.1354,372.2918,100.4554,100.6523,0.0591,0.0008,0.0307,1.0766,0.4983,-0.0047,0.0001,0.1524,-0.0002,0.0,0.012
383,2025-09-01 14:41:57.498230,0.02,0.10472,364.127,373.3129,100.4828,100.7042,0.0591,0.0008,0.0307,1.0946,0.4983,-0.0047,0.0001,0.1524,-0.0001,0.0,-0.0005
384,2025-09-01 14:41:57.615453,0.02,0.10472,365.112,374.3208,100.5089,100.7565,0.0591,0.0008,0.0307,1.1124,0.4983,-0.0047,0.0001,0.1524,0.0002,-0.0003,-0.0061
385,2025-09-01 14:41:57.731695,0.02,0.10472,366.097,375.332,100.5341,100.8089,0.0591,0.0008,0.0307,1.1303,0.4983,-0.0047,0.0001,0.1524,-0.0001,0.0003,0.0039
